[{"_id":"rec1ZXNAKCdYMk3ny","Name":"ZG","Town":"Zagreb","lat":45.815399,"lng":15.966568,"Locations":["recv8nxSX0k731l6N"]},{"_id":"rec56mD1qmLn3iD0w","Name":"NS","Town":"Novi Sad","lat":45.267136,"lng":19.833549,"Locations":["rec00JYBLRlJwMty5","recDxYpNxq8wqwXA4"]},{"_id":"recHjdNsZZJdcfVQG","Name":"SU","Town":"Subotica","lat":46.100376,"lng":19.667587,"Locations":["recVURjrxwQua2AMB"]},{"_id":"recikTOzkI11HLGJC","Name":"BGD","Town":"Beograd","lat":44.787197,"lng":20.457273,"Locations":["recRuUhnisxbIIyO5","recxqRDwWT9QznetN"]},{"_id":"rectrnFu6mZuiNrgR","Name":"OS","Town":"Osijek","lat":45.555,"lng":18.6955,"Locations":["rec1JUxQmxC3vNfuk"]},{"_id":"recwfCM2fM3mGy7tj","Name":"NIŠ","Town":"Niš","lat":43.3209,"lng":21.8958,"Locations":["rec5q5iEkmStyCcmD"]}]